{
"type": "FeatureCollection",
"name": "food_banks",
"crs": { "type": "name", "properties": { "name": "urn:ogc:def:crs:OGC:1.3:CRS84" } },
"features": [
{ "type": "Feature", "properties": { "name": "St Michael's Church", "postcode": "SW18 5TT", "lat": 51.4497351, "lon": -0.2021724 }, "geometry": { "type": "Point", "coordinates": [ -0.2021724, 51.4497351 ] } },
{ "type": "Feature", "properties": { "name": "Roehampton Methodist Church", "postcode": "SW15 4EP", "lat": 51.4517689, "lon": -0.2493257 }, "geometry": { "type": "Point", "coordinates": [ -0.2493257, 51.4517689 ] } },
{ "type": "Feature", "properties": { "name": "Streatham", "postcode": "SW16 3PY", "lat": 51.4205907, "lon": -0.1286179 }, "geometry": { "type": "Point", "coordinates": [ -0.1286179, 51.4205907 ] } },
{ "type": "Feature", "properties": { "name": "Mitcham Lane Baptist Church", "postcode": "SW16 6NT", "lat": 51.4211688, "lon": -0.1457384 }, "geometry": { "type": "Point", "coordinates": [ -0.1457384, 51.4211688 ] } },
{ "type": "Feature", "properties": { "name": "Downham", "postcode": "SE6 2RP", "lat": 51.4282918, "lon": -0.0112839 }, "geometry": { "type": "Point", "coordinates": [ -0.0112839, 51.4282918 ] } },
{ "type": "Feature", "properties": { "name": "Dulwich", "postcode": "SE21 8BU", "lat": 51.431715, "lon": -0.0904653 }, "geometry": { "type": "Point", "coordinates": [ -0.0904653, 51.431715 ] } },
{ "type": "Feature", "properties": { "name": "Forest Hill", "postcode": "SE23 2QL", "lat": 51.4349708, "lon": -0.0432624 }, "geometry": { "type": "Point", "coordinates": [ -0.0432624, 51.434970799999988 ] } },
{ "type": "Feature", "properties": { "name": "West Norwood", "postcode": "SE27 9AW", "lat": 51.437861, "lon": -0.106026 }, "geometry": { "type": "Point", "coordinates": [ -0.106026, 51.437861 ] } },
{ "type": "Feature", "properties": { "name": "Catford", "postcode": "SE6 2HE", "lat": 51.4460211, "lon": -0.017136 }, "geometry": { "type": "Point", "coordinates": [ -0.017136, 51.4460211 ] } },
{ "type": "Feature", "properties": { "name": "Balham", "postcode": "SW12 9AH", "lat": 51.447977, "lon": -0.148807 }, "geometry": { "type": "Point", "coordinates": [ -0.148807, 51.447977 ] } },
{ "type": "Feature", "properties": { "name": "Brixton", "postcode": "SW2 2TX", "lat": 51.451426, "lon": -0.1206132 }, "geometry": { "type": "Point", "coordinates": [ -0.1206132, 51.451426 ] } },
{ "type": "Feature", "properties": { "name": "Eltham", "postcode": "SE9 6SZ", "lat": 51.4526699, "lon": 0.0517935 }, "geometry": { "type": "Point", "coordinates": [ 0.0517935, 51.4526699 ] } },
{ "type": "Feature", "properties": { "name": "Church of the Good Shepherd", "postcode": "SE12 8NR", "lat": 51.4527113, "lon": 0.0080376 }, "geometry": { "type": "Point", "coordinates": [ 0.0080376, 51.4527113 ] } },
{ "type": "Feature", "properties": { "name": "Lewisham", "postcode": "SE13 6BT", "lat": 51.4607421, "lon": -0.0091759 }, "geometry": { "type": "Point", "coordinates": [ -0.0091759, 51.4607421 ] } },
{ "type": "Feature", "properties": { "name": "Nunhead", "postcode": "SE15 3QH", "lat": 51.465276, "lon": -0.063453 }, "geometry": { "type": "Point", "coordinates": [ -0.063453, 51.465276 ] } },
{ "type": "Feature", "properties": { "name": "Kidbrooke", "postcode": "SE3 0DU", "lat": 51.4698968, "lon": 0.0237675 }, "geometry": { "type": "Point", "coordinates": [ 0.0237675, 51.4698968 ] } },
{ "type": "Feature", "properties": { "name": "Peckham Methodist Church", "postcode": "SE15 2PX", "lat": 51.4729159, "lon": -0.0624405 }, "geometry": { "type": "Point", "coordinates": [ -0.0624405, 51.4729159 ] } },
{ "type": "Feature", "properties": { "name": "St John's Church, Blackheath", "postcode": "SE3 7TH", "lat": 51.4737208, "lon": 0.01589 }, "geometry": { "type": "Point", "coordinates": [ 0.01589, 51.4737208 ] } },
{ "type": "Feature", "properties": { "name": "Camberwell", "postcode": "SE5 7HG", "lat": 51.476756, "lon": -0.091207 }, "geometry": { "type": "Point", "coordinates": [ -0.091207, 51.476756 ] } },
{ "type": "Feature", "properties": { "name": "Deptford", "postcode": "SE8 3DP", "lat": 51.4803188, "lon": -0.0254715 }, "geometry": { "type": "Point", "coordinates": [ -0.0254715, 51.4803188 ] } },
{ "type": "Feature", "properties": { "name": "St Paul's Church", "postcode": "SE17 3QU", "lat": 51.4850342, "lon": -0.1007567 }, "geometry": { "type": "Point", "coordinates": [ -0.1007567, 51.4850342 ] } },
{ "type": "Feature", "properties": { "name": "East Greenwich", "postcode": "SE10 9EQ", "lat": 51.4853144, "lon": 0.0049131 }, "geometry": { "type": "Point", "coordinates": [ 0.0049131, 51.4853144 ] } },
{ "type": "Feature", "properties": { "name": "Woolwich", "postcode": "SE18 6EF", "lat": 51.4883094, "lon": 0.0667899 }, "geometry": { "type": "Point", "coordinates": [ 0.0667899, 51.4883094 ] } },
{ "type": "Feature", "properties": { "name": "Plumstead", "postcode": "SE18 7PZ", "lat": 51.4896774, "lon": 0.0847463 }, "geometry": { "type": "Point", "coordinates": [ 0.0847463, 51.4896774 ] } },
{ "type": "Feature", "properties": { "name": "City Hope Church", "postcode": "SE16 2JY", "lat": 51.4940108, "lon": -0.0604298 }, "geometry": { "type": "Point", "coordinates": [ -0.0604298, 51.4940108 ] } },
{ "type": "Feature", "properties": { "name": "Southwark", "postcode": "SE1 6HH", "lat": 51.495958, "lon": -0.102449 }, "geometry": { "type": "Point", "coordinates": [ -0.102449, 51.495958 ] } },
{ "type": "Feature", "properties": { "name": "South London", "postcode": "SE1 6NT", "lat": 51.49663, "lon": -0.098949 }, "geometry": { "type": "Point", "coordinates": [ -0.098949, 51.49663 ] } },
{ "type": "Feature", "properties": { "name": "Strutton Ground", "postcode": "SW1P 2HP", "lat": 51.4972651, "lon": -0.1340234 }, "geometry": { "type": "Point", "coordinates": [ -0.1340234, 51.4972651 ] } },
{ "type": "Feature", "properties": { "name": "Bermondsey Methodist Church", "postcode": "SE1 3UJ", "lat": 51.4976862, "lon": -0.0816664 }, "geometry": { "type": "Point", "coordinates": [ -0.0816664, 51.4976862 ] } },
{ "type": "Feature", "properties": { "name": "Oasis Centre", "postcode": "SE1 7QP", "lat": 51.4981936, "lon": -0.1119271 }, "geometry": { "type": "Point", "coordinates": [ -0.1119271, 51.4981936 ] } },
{ "type": "Feature", "properties": { "name": "Royal Docks Learning & Activity Centre", "postcode": "E16 2JB", "lat": 51.500721, "lon": 0.058342 }, "geometry": { "type": "Point", "coordinates": [ 0.058342, 51.500721 ] } },
{ "type": "Feature", "properties": { "name": "Royal Docks Learning & Activity Centre", "postcode": "E16 2JB", "lat": 51.5008, "lon": 0.058305 }, "geometry": { "type": "Point", "coordinates": [ 0.058305, 51.5008 ] } },
{ "type": "Feature", "properties": { "name": "Poplar", "postcode": "E14 6AJ", "lat": 51.511673, "lon": -0.015815 }, "geometry": { "type": "Point", "coordinates": [ -0.015815, 51.511673 ] } },
{ "type": "Feature", "properties": { "name": "7 Dials Club", "postcode": "WC2H 9LA", "lat": 51.5137666, "lon": -0.1260621 }, "geometry": { "type": "Point", "coordinates": [ -0.1260621, 51.5137666 ] } },
{ "type": "Feature", "properties": { "name": "Regent Hall", "postcode": "W1C 2DJ", "lat": 51.514847, "lon": -0.143215 }, "geometry": { "type": "Point", "coordinates": [ -0.143215, 51.514847 ] } },
{ "type": "Feature", "properties": { "name": "London Ghana SDA Church", "postcode": "E13 8NF", "lat": 51.517833, "lon": 0.028342 }, "geometry": { "type": "Point", "coordinates": [ 0.028342, 51.517833 ] } },
{ "type": "Feature", "properties": { "name": "Stepney", "postcode": "E1 1DN", "lat": 51.518515, "lon": -0.063646 }, "geometry": { "type": "Point", "coordinates": [ -0.063646, 51.518515 ] } },
{ "type": "Feature", "properties": { "name": "Rehoboth Church", "postcode": "E13 8QB", "lat": 51.5237275, "lon": 0.0259284 }, "geometry": { "type": "Point", "coordinates": [ 0.0259284, 51.5237275 ] } },
{ "type": "Feature", "properties": { "name": "Bonny Downs", "postcode": "E6 6BT", "lat": 51.5287728, "lon": 0.0614995 }, "geometry": { "type": "Point", "coordinates": [ 0.0614995, 51.5287728 ] } },
{ "type": "Feature", "properties": { "name": "WGMI Centre", "postcode": "E13 9LB", "lat": 51.52946, "lon": 0.035145 }, "geometry": { "type": "Point", "coordinates": [ 0.035145, 51.52946 ] } },
{ "type": "Feature", "properties": { "name": "Hoxton", "postcode": "E2 8EA", "lat": 51.5315265, "lon": -0.07644 }, "geometry": { "type": "Point", "coordinates": [ -0.07644, 51.5315265 ] } },
{ "type": "Feature", "properties": { "name": "North London", "postcode": "N1 6TG", "lat": 51.5327743, "lon": -0.0868001 }, "geometry": { "type": "Point", "coordinates": [ -0.0868001, 51.5327743 ] } },
{ "type": "Feature", "properties": { "name": "Hoxton", "postcode": "N1 6TG", "lat": 51.5327743, "lon": -0.0868001 }, "geometry": { "type": "Point", "coordinates": [ -0.0868001, 51.5327743 ] } },
{ "type": "Feature", "properties": { "name": "Cambridge Heath ", "postcode": "E8 4RT", "lat": 51.535787, "lon": -0.056915 }, "geometry": { "type": "Point", "coordinates": [ -0.056915, 51.535787 ] } },
{ "type": "Feature", "properties": { "name": "Stratford", "postcode": "E15 4QB", "lat": 51.5372575, "lon": 0.002236 }, "geometry": { "type": "Point", "coordinates": [ 0.002236, 51.5372575 ] } },
{ "type": "Feature", "properties": { "name": "The Yard, Putney", "postcode": "SW15 3BD", "lat": 51.455202, "lon": -0.2290289 }, "geometry": { "type": "Point", "coordinates": [ -0.2290289, 51.455202 ] } },
{ "type": "Feature", "properties": { "name": "Wandsworth", "postcode": "SW18 1TJ", "lat": 51.457966, "lon": -0.19185 }, "geometry": { "type": "Point", "coordinates": [ -0.19185, 51.457966 ] } },
{ "type": "Feature", "properties": { "name": "Shaftesbury Christian Centre", "postcode": "SW11 5JP", "lat": 51.4736196, "lon": -0.1547901 }, "geometry": { "type": "Point", "coordinates": [ -0.1547901, 51.4736196 ] } },
{ "type": "Feature", "properties": { "name": "Chelsea", "postcode": "SW10 0DT", "lat": 51.481814, "lon": -0.177927 }, "geometry": { "type": "Point", "coordinates": [ -0.177927, 51.481814 ] } },
{ "type": "Feature", "properties": { "name": "St Simon's Church", "postcode": "W14 0DA", "lat": 51.5021287, "lon": -0.2200076 }, "geometry": { "type": "Point", "coordinates": [ -0.2200076, 51.5021287 ] } },
{ "type": "Feature", "properties": { "name": "St Michael and St George's Church", "postcode": "W12 7QR", "lat": 51.5124687, "lon": -0.2306244 }, "geometry": { "type": "Point", "coordinates": [ -0.2306244, 51.5124687 ] } },
{ "type": "Feature", "properties": { "name": "St Katherine's Church", "postcode": "W12 0SD", "lat": 51.514613, "lon": -0.2429761 }, "geometry": { "type": "Point", "coordinates": [ -0.2429761, 51.514613 ] } },
{ "type": "Feature", "properties": { "name": "Notting Hill", "postcode": "W11 1LU", "lat": 51.516312, "lon": -0.205549 }, "geometry": { "type": "Point", "coordinates": [ -0.205549, 51.516312 ] } },
{ "type": "Feature", "properties": { "name": "Chalk Farm", "postcode": "NW3 2BL", "lat": 51.544331, "lon": -0.153152 }, "geometry": { "type": "Point", "coordinates": [ -0.153152, 51.544331 ] } },
{ "type": "Feature", "properties": { "name": "Manor Park Centre", "postcode": "E12 6RH", "lat": 51.545906, "lon": 0.049247 }, "geometry": { "type": "Point", "coordinates": [ 0.049247, 51.545906 ] } },
{ "type": "Feature", "properties": { "name": "Woodgrange Baptist Church", "postcode": "E7 8AA", "lat": 51.5468726, "lon": 0.0285214 }, "geometry": { "type": "Point", "coordinates": [ 0.0285214, 51.5468726 ] } },
{ "type": "Feature", "properties": { "name": "Dalston", "postcode": "N1 4AG", "lat": 51.5468954, "lon": -0.0815852 }, "geometry": { "type": "Point", "coordinates": [ -0.0815852, 51.5468954 ] } },
{ "type": "Feature", "properties": { "name": "Manor Park Site", "postcode": "E12 6JJ", "lat": 51.547338, "lon": 0.0642927 }, "geometry": { "type": "Point", "coordinates": [ 0.0642927, 51.547338 ] } },
{ "type": "Feature", "properties": { "name": "Pembury", "postcode": "E8 1FA", "lat": 51.5497716, "lon": -0.0587778 }, "geometry": { "type": "Point", "coordinates": [ -0.0587778, 51.5497716 ] } },
{ "type": "Feature", "properties": { "name": "Clapton with Stoke Newington and Dalston Plants", "postcode": "E5 0QR", "lat": 51.553712, "lon": -0.053324 }, "geometry": { "type": "Point", "coordinates": [ -0.053324, 51.553712 ] } },
{ "type": "Feature", "properties": { "name": "Homerton", "postcode": "E5 0HL", "lat": 51.5553734, "lon": -0.0386839 }, "geometry": { "type": "Point", "coordinates": [ -0.0386839, 51.5553734 ] } },
{ "type": "Feature", "properties": { "name": "Stoke Newington", "postcode": "N16 9ES", "lat": 51.5608082, "lon": -0.0847466 }, "geometry": { "type": "Point", "coordinates": [ -0.0847466, 51.5608082 ] } },
{ "type": "Feature", "properties": { "name": "Upper Clapton", "postcode": "N16 5DU", "lat": 51.5706481, "lon": -0.080275 }, "geometry": { "type": "Point", "coordinates": [ -0.080275, 51.5706481 ] } },
{ "type": "Feature", "properties": { "name": "Tottenham SDA", "postcode": "N15 5EG", "lat": 51.5860791, "lon": -0.0858254 }, "geometry": { "type": "Point", "coordinates": [ -0.0858254, 51.5860791 ] } },
{ "type": "Feature", "properties": { "name": "Bruce Grove", "postcode": "N17 9JD", "lat": 51.5923695, "lon": -0.0697955 }, "geometry": { "type": "Point", "coordinates": [ -0.0697955, 51.5923695 ] } },
{ "type": "Feature", "properties": { "name": "Wood Green", "postcode": "N22 6JA", "lat": 51.593789, "lon": -0.105882 }, "geometry": { "type": "Point", "coordinates": [ -0.105882, 51.593789 ] } }
]
}
